,City,Cloudiness,Country,Date,Humidity,Lat,Lng,Max Temp,Wind Speed
0,Hasaki,20,JP,1582448351,34,35.73,140.83,50.0,14.99
1,Albany,1,US,1582448352,68,42.6,-73.97,28.0,5.82
2,Mayya,100,RU,1582448120,75,61.73,130.28,-16.6,2.24
3,Longyearbyen,20,SJ,1582448241,70,78.22,15.64,-2.2,10.29
4,Souillac,75,MU,1582448356,70,-20.52,57.52,84.99,8.05
5,Ulladulla,100,AU,1582448357,64,-35.35,150.47,73.4,11.41
6,San Patricio,0,MX,1582448359,75,19.22,-104.7,74.55,3.38
7,Grand Gaube,75,MU,1582448360,70,-20.01,57.66,84.99,8.05
8,Kahului,75,US,1582448361,77,20.89,-156.47,70.0,6.93
9,Mataura,74,NZ,1582448223,86,-46.19,168.86,55.99,3.0
10,Udachny,54,RU,1582448363,91,66.42,112.4,3.2,4.47
11,Saskylakh,100,RU,1582448239,88,71.92,114.08,9.73,8.99
12,Bac Lieu,9,VN,1582448366,38,9.29,105.72,89.89,19.1
13,Kysyl-Syr,100,RU,1582448367,97,63.9,122.76,-2.02,2.51
14,Yellowknife,75,CA,1582448229,69,62.46,-114.35,-7.01,6.93
15,Staryy Oskol,100,RU,1582448369,96,51.3,37.84,31.23,20.85
16,Swift Current,1,CA,1582448371,73,50.28,-107.8,24.8,11.41
17,Busselton,100,AU,1582448372,29,-33.65,115.33,84.99,3.27
18,Hay River,75,CA,1582448373,83,60.82,-115.8,-4.0,2.24
19,Dongsheng,0,CN,1582448374,33,39.82,109.98,44.31,5.23
20,Ati,0,TD,1582448375,9,13.22,18.34,85.6,13.98
21,Esperance,75,AU,1582448377,73,-33.87,121.9,71.6,19.46
22,Hermanus,0,ZA,1582448378,56,-34.42,19.23,81.0,15.01
23,Hobart,75,AU,1582448216,63,-42.88,147.33,64.4,17.22
24,Blind River,1,CA,1582448124,92,46.18,-82.96,26.6,9.53
25,Castellaneta,40,IT,1582448381,49,40.63,16.94,57.99,4.7
26,Rikitea,0,PF,1582448218,66,-23.12,-134.97,79.11,3.83
27,Airai,41,TL,1582448274,86,-8.93,125.41,74.86,2.84
28,Klaksvik,100,FO,1582448124,92,62.23,-6.59,30.2,5.82
29,Molango,37,MX,1582448125,92,20.78,-98.72,54.5,3.33
30,San Rafael del Sur,40,NI,1582448387,88,11.85,-86.44,73.4,6.93
31,Asau,100,RO,1582448388,50,46.43,26.4,51.8,1.12
32,Vaini,75,TO,1582448390,83,-21.2,-175.2,80.6,10.29
33,Labuhan,76,ID,1582448391,82,-6.88,112.21,83.37,7.0
34,East London,20,ZA,1582448392,60,-33.02,27.91,69.8,14.99
35,Khandyga,96,RU,1582448393,100,62.67,135.6,-7.13,0.96
36,Mattru,79,SL,1582448394,74,7.62,-11.83,83.03,4.07
37,Khatanga,100,RU,1582448396,85,71.97,102.5,15.3,13.31
38,Nhulunbuy,40,AU,1582448397,83,-12.23,136.77,82.4,9.17
39,Nikolskoye,75,RU,1582448398,69,59.7,30.79,39.2,17.9
40,Mount Gambier,34,AU,1582448226,64,-37.83,140.77,68.0,17.22
41,Maniitsoq,100,GL,1582448400,58,65.42,-52.9,11.35,10.33
42,Atuona,0,PF,1582448401,77,-9.8,-139.03,81.27,12.37
43,Mar del Plata,0,AR,1582448403,93,-38.0,-57.56,55.99,5.82
44,Port Alfred,88,ZA,1582448404,63,-33.59,26.89,72.0,5.01
45,Northam,40,GB,1582448127,82,51.03,-4.22,57.0,23.04
46,Barrow,1,US,1582448406,82,71.29,-156.79,-23.8,10.29
47,Santa Cruz del Sur,3,CU,1582448408,76,20.71,-78.0,74.57,20.8
48,Rudnogorsk,100,RU,1582448409,89,57.26,103.75,22.32,5.91
49,Nevelsk,75,RU,1582448410,92,46.67,141.86,24.8,22.37
50,Yulara,0,AU,1582448411,4,-25.24,130.99,98.6,14.99
51,Qaanaaq,100,GL,1582448413,92,77.48,-69.36,-13.05,1.57
52,Waingapu,100,ID,1582448414,70,-9.66,120.26,84.67,16.02
53,Te Anau,27,NZ,1582448415,82,-45.42,167.72,53.74,7.81
54,Cabo San Lucas,31,MX,1582448393,64,22.89,-109.91,70.0,7.61
55,Mehamn,0,NO,1582448417,82,71.04,27.85,24.19,5.57
56,Dikson,100,RU,1582448418,94,73.51,80.55,28.38,19.62
57,Puerto Ayora,30,EC,1582448226,100,-0.74,-90.35,75.99,4.74
58,Yabelo,47,ET,1582448421,21,4.88,38.08,83.86,22.26
59,Avarua,100,CK,1582448422,88,-21.21,-159.78,82.4,4.7
60,Luderitz,0,NA,1582448217,57,-26.65,15.16,75.2,12.75
61,Beloha,100,MG,1582448424,52,-25.17,45.05,89.6,10.38
62,Topola,82,RS,1582448426,100,44.25,20.68,44.6,1.12
63,Arraial do Cabo,80,BR,1582448231,73,-22.97,-42.03,74.53,14.32
64,Kodiak,1,US,1582448428,48,57.79,-152.41,19.4,19.46
65,Mazyr,100,BY,1582448429,67,52.05,29.25,42.62,22.68
66,Bengkulu,46,ID,1582448431,75,-3.8,102.27,83.73,4.54
67,Port Elizabeth,20,ZA,1582448432,49,-33.92,25.57,71.6,6.93
68,Dunedin,100,NZ,1582448433,70,-45.87,170.5,59.0,4.68
69,Avera,1,US,1582448434,100,33.19,-82.53,37.0,1.05
70,Ust-Nera,91,RU,1582448436,100,64.57,143.2,-31.65,0.89
71,Ushuaia,40,AR,1582448437,70,-54.8,-68.3,48.2,25.28
72,Talnakh,75,RU,1582448234,92,69.49,88.4,10.4,31.32
73,Tiksi,100,RU,1582448439,91,71.69,128.87,-10.89,6.06
74,Chokurdakh,90,RU,1582448441,98,70.63,147.92,-17.63,1.92
75,Thompson,90,CA,1582448442,72,55.74,-97.86,12.2,4.7
76,Nabire,100,ID,1582448259,97,-3.37,135.48,76.55,1.14
77,Burnie,3,AU,1582448444,81,-41.07,145.92,66.0,7.0
78,Lebu,0,CL,1582448445,93,-37.62,-73.65,49.19,1.14
79,Hithadhoo,85,MV,1582448257,78,-0.6,73.08,82.92,15.14
80,Pacific Grove,90,US,1582448280,81,36.62,-121.92,53.6,9.17
81,Dudinka,75,RU,1582448449,92,69.41,86.18,10.4,31.32
82,Oksfjord,31,NO,1582448450,86,70.24,22.35,28.4,4.7
83,Rosetta,79,EG,1582448452,56,31.4,30.42,59.05,2.75
84,Bredasdorp,0,ZA,1582448453,38,-34.53,20.04,73.4,17.22
85,New Norfolk,75,AU,1582448455,63,-42.78,147.06,64.4,17.22
86,Buchanan,75,LR,1582448456,94,5.88,-10.05,78.8,3.49
87,Nagato,0,JP,1582448457,51,34.38,131.2,50.0,14.99
88,Nevsehir,75,TR,1582448458,80,38.92,34.67,41.0,5.82
89,Provideniya,53,RU,1582448247,100,64.38,-173.3,-9.81,2.95
90,Saint-Philippe,45,RE,1582448460,62,-21.36,55.77,86.0,8.05
91,Nanortalik,100,GL,1582448462,75,60.14,-45.24,26.35,4.0
92,Kumul,2,CN,1582448463,36,42.8,93.45,40.75,5.28
93,Upernavik,60,GL,1582448464,88,72.79,-56.15,-15.36,3.62
94,Tasiilaq,0,GL,1582448465,78,65.61,-37.64,10.4,8.63
95,Noumea,20,NC,1582448467,65,-22.28,166.46,84.0,16.11
96,Tuktoyaktuk,94,CA,1582448468,97,69.45,-133.04,-4.41,4.23
97,Stadtbergen,75,DE,1582448469,75,48.37,10.85,48.99,13.87
98,Arman,81,RU,1582448470,94,59.7,150.17,0.16,3.96
99,Qandala,0,SO,1582448472,47,11.47,49.87,81.28,12.44
100,Pisco,20,PE,1582448473,88,-13.7,-76.22,73.4,1.88
101,Las Vegas,90,US,1582447996,93,36.17,-115.14,51.8,3.69
102,Tanete,76,ID,1582448475,61,-3.94,119.78,87.85,7.29
103,Canto do Buriti,100,BR,1582448476,97,-8.11,-42.94,71.04,7.29
104,Puerto Carreno,100,CO,1582448478,52,6.19,-67.49,82.94,10.47
105,Hong Kong,1,HK,1582448365,53,22.29,114.16,78.01,4.7
106,Mumbwa,100,ZM,1582448480,73,-14.98,27.06,81.84,1.77
107,Punta Arenas,75,CL,1582448225,62,-53.15,-70.92,51.8,20.8
108,Scarborough,100,GB,1582448264,100,54.28,-0.4,43.0,4.7
109,Deputatsky,44,RU,1582448210,97,69.3,139.9,-17.27,3.09
110,Lavrentiya,99,RU,1582448485,100,65.58,-171.0,-9.67,2.91
111,Skelleftea,47,SE,1582448486,74,64.75,20.95,37.0,12.75
112,Cape Town,0,ZA,1582448487,36,-33.93,18.42,81.0,8.05
113,North Bend,90,US,1582448488,100,43.41,-124.22,48.0,6.93
114,Cape Canaveral,40,US,1582448462,100,28.41,-80.6,57.99,5.82
115,Sitka,90,US,1582448491,74,57.05,-135.33,37.4,17.22
116,Touros,40,BR,1582448492,94,-5.2,-35.46,77.0,3.36
117,Salalah,0,OM,1582448493,65,17.02,54.09,78.8,8.05
118,Leningradskiy,100,RU,1582448247,91,69.38,178.42,-13.36,8.9
119,Lorengau,41,PG,1582448496,68,-2.02,147.27,84.18,7.47
120,Severo-Kuril'sk,100,RU,1582448497,95,50.68,156.12,20.19,26.08
121,Khuzhir,1,RU,1582448498,75,53.19,107.34,20.57,8.81
122,Nisibis,20,TR,1582448500,58,37.08,41.22,59.0,11.41
123,Kavieng,84,PG,1582448244,71,-2.57,150.8,84.09,4.03
124,Wanaka,8,NZ,1582448502,92,-44.7,169.15,48.76,5.06
125,Kapaa,75,US,1582448503,83,22.08,-159.32,73.4,10.29
126,Yakeshi,100,CN,1582448504,96,49.28,120.73,6.37,7.52
127,Castro,100,BR,1582448505,96,-24.79,-50.01,52.74,5.88
128,Flinders,100,AU,1582448507,64,-34.58,150.86,73.4,11.41
129,Zhangjiakou,0,CN,1582448508,35,40.81,114.88,35.91,3.44
130,Bluff,37,NZ,1582448509,87,-46.6,168.33,55.99,1.99
131,General Roca,0,AR,1582448510,68,-39.03,-67.58,64.4,2.24
132,Tautira,20,PF,1582448511,78,-17.73,-149.15,78.8,2.24
133,Eirunepe,100,BR,1582448513,99,-6.66,-69.87,72.52,2.71
134,George Town,20,MY,1582448218,46,5.41,100.34,93.2,11.41
135,Ust-Kuyga,85,RU,1582448515,100,70.02,135.6,-17.64,3.15
136,Laguna,1,US,1582448273,87,38.42,-121.42,53.01,9.17
137,Geraldton,0,AU,1582448449,61,-28.77,114.6,82.4,14.99
138,Karasjok,76,NO,1582448519,79,69.47,25.51,26.6,4.7
139,Jamestown,1,US,1582448520,58,42.1,-79.24,37.0,5.82
140,Saint-Augustin,100,CA,1582448521,88,51.23,-58.65,26.96,18.59
141,Albert,90,FR,1582448522,93,50.0,2.65,55.99,26.4
142,Marzuq,0,YE,1582448523,5,14.4,46.47,88.43,10.6
143,Urumqi,100,CN,1582448525,48,43.8,87.6,41.0,2.24
144,Derzhavinsk,100,KZ,1582448526,88,51.1,66.32,24.87,2.95
145,Zhigansk,95,RU,1582448527,100,66.77,123.37,-11.97,5.84
146,Kushiro,40,JP,1582448528,51,42.98,144.37,35.6,17.22
147,Carnarvon,0,AU,1582448529,62,-24.87,113.63,84.2,17.22
148,Chemal,100,RU,1582448531,95,51.41,86.0,26.58,5.66
149,Torbay,90,CA,1582448532,86,47.67,-52.73,30.0,12.75
150,Ryabovo,75,RU,1582448533,69,59.4,31.13,39.2,17.9
151,Palana,100,RU,1582448534,81,59.12,159.97,7.74,6.11
152,Suez,57,EG,1582448535,49,29.97,32.53,60.98,7.63
153,Lixouri,10,GR,1582448313,54,38.2,20.43,53.6,5.82
154,Mitsamiouli,40,KM,1582448538,70,-11.38,43.28,89.6,10.29
155,Povenets,100,RU,1582448539,95,62.85,34.83,32.59,19.08
156,Acapulco de Juarez,5,MX,1582448402,83,16.86,-99.89,75.2,3.42
157,Port Lincoln,69,AU,1582448541,54,-34.73,135.87,73.74,12.21
158,Les Cayes,8,HT,1582448542,71,18.2,-73.75,78.01,5.68
159,Taft,0,IR,1582448544,17,31.75,54.21,66.2,9.17
160,Hirara,40,JP,1582448545,68,24.8,125.28,69.8,13.87
161,Provincia de Las Palmas,1,ES,1582448546,60,28.42,-14.01,69.8,11.41
162,Purificacion,62,CO,1582448547,86,3.86,-74.93,74.19,1.54
163,Bulgan,100,MN,1582448548,92,48.81,103.53,19.49,6.62
164,Denpasar,20,ID,1582448486,79,-8.65,115.22,87.8,8.05
165,Ahipara,2,NZ,1582448551,82,-35.17,173.17,62.01,20.42
166,Korla,32,CN,1582448552,50,41.76,86.15,46.99,4.0
167,Belomorsk,100,RU,1582448553,92,64.52,34.77,33.78,14.52
168,Troitskoye,70,RU,1582448554,90,52.98,84.68,27.1,6.11
169,Mnogovershinnyy,20,RU,1582448556,95,53.94,139.92,-1.23,2.21
170,Chaadayevka,99,RU,1582448557,71,53.14,45.91,32.0,16.8
171,Cidreira,47,BR,1582448558,76,-30.18,-50.21,66.94,8.12
172,Mahebourg,75,MU,1582448559,70,-20.41,57.7,84.99,8.05
173,Tlacojalpan,49,MX,1582448560,89,18.23,-95.95,66.99,1.01
174,Aldan,100,RU,1582448562,98,58.6,125.39,6.08,2.17
175,Kyabe,0,TD,1582448563,7,9.45,18.94,93.49,9.86
176,Pevek,100,RU,1582448564,97,69.7,170.31,-11.07,6.82
177,Yerbogachen,100,RU,1582448565,95,61.28,108.01,18.66,5.55
178,Ancud,75,CL,1582448566,100,-41.87,-73.82,50.0,6.93
179,Aquiraz,75,BR,1582448568,88,-3.9,-38.39,75.99,2.24
180,Turinsk,57,RU,1582448408,94,58.05,63.7,30.29,9.51
181,Ziarat,0,PK,1582448570,33,30.38,67.73,52.16,4.76
182,Horsham,75,GB,1582448571,100,51.06,-0.33,55.99,18.34
183,Kasongo-Lunda,100,CD,1582448525,87,-6.47,16.82,78.73,1.9
184,Butaritari,76,KI,1582448574,77,3.07,172.79,84.76,14.7
185,Vestmannaeyjar,89,IS,1582448575,58,63.44,-20.27,36.88,32.41
186,Vostok,99,RU,1582448576,98,46.49,135.88,5.5,3.11
187,Coquimbo,99,CL,1582448577,87,-29.95,-71.34,57.2,5.35
188,Hilo,75,US,1582448296,73,19.73,-155.09,69.8,4.7
189,Hobyo,33,SO,1582448580,44,5.35,48.53,86.94,21.56
190,Kiama,100,AU,1582448581,64,-34.68,150.87,73.4,11.41
191,Adrar,70,MR,1582448582,11,20.5,-10.07,79.56,20.15
192,Soure,92,BR,1582448583,94,-0.72,-48.52,75.88,3.87
193,Ponta do Sol,40,PT,1582448585,77,32.67,-17.1,64.99,20.8
194,Inta,57,RU,1582448586,80,66.03,60.17,31.24,26.91
195,Smithers,100,CA,1582448423,85,54.78,-127.17,21.2,4.63
196,Ribeira Grande,75,PT,1582448588,67,38.52,-28.7,59.0,3.36
197,Mendoza,0,AR,1582448590,67,-32.89,-68.83,60.8,0.78
198,Namwala,100,ZM,1582448591,66,-15.75,26.44,82.58,3.58
199,Vila Velha,90,BR,1582448448,94,-20.33,-40.29,73.4,16.11
200,Waipawa,0,NZ,1582448593,67,-41.41,175.52,59.0,12.75
201,Gao,33,ML,1582448595,8,16.64,1.64,84.0,18.43
202,San Policarpo,0,PH,1582448596,84,12.18,125.51,79.02,14.76
203,Cherskiy,93,RU,1582448598,95,68.75,161.3,-24.29,6.87
204,Djambala,42,CG,1582448525,72,-2.54,14.75,80.28,9.48
205,Kipushi,100,CD,1582448600,78,-11.77,27.23,77.04,4.03
206,Cockburn Town,31,TC,1582448601,78,21.46,-71.14,75.79,21.21
207,Celestun,23,MX,1582448602,66,20.87,-90.4,71.11,10.27
208,York,1,US,1582448513,50,40.13,-77.0,33.01,3.36
209,Qarayeri,40,AZ,1582448605,50,40.79,46.31,55.4,18.34
210,Pouembout,60,NC,1582448606,86,-21.13,164.9,73.24,4.52
211,Namatanai,10,PG,1582448607,75,-3.67,152.43,84.16,9.4
212,Pitimbu,64,BR,1582448609,94,-7.47,-34.81,77.0,3.6
213,Merauke,99,ID,1582448610,88,-8.47,140.33,79.59,9.4
214,Kuytun,99,RU,1582448611,85,54.34,101.5,20.88,3.29
215,Sioux Lookout,90,CA,1582448542,63,50.1,-91.92,28.4,5.82
216,Gamba,80,GA,1582448613,76,-2.65,10.0,84.38,4.74
217,Narsaq,100,GL,1582448584,73,60.92,-46.05,24.8,10.29
218,Saint George,90,US,1582448504,93,37.1,-113.58,44.01,4.7
219,Cuamba,91,MZ,1582448617,83,-14.8,36.54,80.83,4.68
220,Saint-Paul,99,RE,1582448618,58,-21.01,55.27,86.0,6.93
221,Progreso,5,MX,1582448619,77,21.28,-89.67,64.0,16.37
222,Kilindoni,88,TZ,1582448621,76,-7.91,39.67,84.85,13.42
223,Bathsheba,20,BB,1582448622,94,13.22,-59.52,73.4,4.7
224,Fortuna,90,US,1582448623,87,40.6,-124.16,48.99,1.12
225,Bethel,1,US,1582448428,58,41.37,-73.41,32.0,4.12
226,Lompoc,90,US,1582448428,87,34.64,-120.46,54.0,4.7
227,Carlos Chagas,100,BR,1582448627,98,-17.7,-40.77,73.2,3.91
228,Porto Tolle,90,IT,1582448628,93,44.95,12.32,48.99,3.36
229,San Borja,100,BO,1582448629,76,-14.82,-66.85,68.02,1.54
230,Alice Springs,0,AU,1582448548,12,-23.7,133.88,93.2,14.99
231,Byron Bay,100,AU,1582448631,88,-28.65,153.62,73.4,9.17
232,Doume,25,CM,1582448633,26,4.23,13.45,89.92,4.61
233,Torit,95,SS,1582448634,29,4.41,32.57,97.32,1.81
234,Codrington,22,AU,1582448635,85,-38.27,141.97,63.19,12.59
235,Morwa,0,IN,1582448636,13,22.9,73.83,91.69,5.97
236,Herat,40,AF,1582448637,23,34.5,62.0,73.4,2.24
237,Katsuura,20,JP,1582448638,29,35.13,140.3,54.0,16.11
238,Xingyi,99,CN,1582448640,49,24.19,102.82,67.59,7.38
239,Kutno,20,PL,1582448627,62,52.23,19.36,44.6,27.51
240,Rio Grande,81,BR,1582448371,96,-32.03,-52.1,57.99,7.85
241,Luba,20,GQ,1582448643,74,3.46,8.55,87.8,10.29
242,Arrondissement de Saintes,90,FR,1582448644,87,45.67,-0.75,53.01,4.7
243,Beringovskiy,0,RU,1582448646,86,63.05,179.32,-13.14,2.26
244,Los Llanos de Aridane,20,ES,1582448647,56,28.66,-17.92,71.6,19.46
245,Khovd,80,MN,1582448648,39,48.01,91.64,35.83,1.52
246,Cagliliog,67,PH,1582448649,80,13.9,123.29,79.43,21.5
247,Vrangel,0,RU,1582448650,60,42.73,133.08,32.72,9.95
248,Samarinda,83,ID,1582448652,60,-0.5,117.15,88.75,5.57
249,San Juan,0,AR,1582448585,41,-31.54,-68.54,65.01,7.38
250,Nome,90,US,1582448654,83,64.5,-165.41,-4.0,10.29
251,Taoudenni,64,ML,1582448655,10,22.68,-3.98,78.64,19.28
252,Karabash,75,RU,1582448657,86,55.48,60.22,30.07,5.23
253,Letovice,75,CZ,1582448658,70,49.55,16.57,51.01,10.29
254,Hanna,4,CA,1582448434,73,51.63,-111.9,17.01,5.99
255,Nagua,32,DO,1582448660,95,19.38,-69.85,67.3,2.84
256,Healesville,73,AU,1582448661,64,-37.65,145.52,77.0,11.41
257,Susanville,1,US,1582448663,63,40.42,-120.65,30.2,5.26
258,Sinnamary,100,GF,1582448664,83,5.38,-52.95,78.91,16.8
259,Caravelas,90,BR,1582448665,84,-17.71,-39.25,80.76,12.82
260,Kaitangata,62,NZ,1582448666,65,-46.28,169.85,59.0,4.0
261,Takoradze,40,GH,1582448668,73,4.88,-1.76,85.42,5.03
262,Faanui,1,PF,1582448669,72,-16.48,-151.75,82.9,8.57
263,Thinadhoo,17,MV,1582448670,78,0.53,72.93,83.07,13.15
264,Mutare,35,ZW,1582448671,55,-18.97,32.67,84.67,3.65
265,Kuala Terengganu,40,MY,1582448673,74,5.33,103.14,84.2,14.99
266,Iwanai,100,JP,1582448674,94,42.97,140.51,27.39,11.95
267,Junin,25,AR,1582448675,84,-34.58,-60.94,52.0,4.0
268,Nyurba,97,RU,1582448676,96,63.28,118.33,1.29,2.01
269,Sharan,64,RU,1582448678,85,54.82,54.0,27.18,15.01
270,Broome,1,US,1582448679,100,42.25,-75.83,28.99,4.29
271,Taltal,58,CL,1582448680,86,-25.4,-70.48,58.77,2.48
272,Vidim,100,RU,1582448681,88,56.41,103.11,21.87,4.56
273,Berlevag,11,NO,1582448682,76,70.86,29.09,32.45,9.53
274,Muravlenko,98,RU,1582448683,91,63.79,74.52,25.3,22.79
275,Kommunar,75,RU,1582448685,69,59.62,30.39,39.2,17.9
276,Grand Forks,1,US,1582448686,92,47.93,-97.03,26.6,10.29
277,Nichinan,0,JP,1582448687,44,31.6,131.37,57.2,12.75
278,Pangnirtung,29,CA,1582448172,96,66.15,-65.71,-35.39,2.3
279,Pochutla,0,MX,1582448172,68,15.74,-96.47,80.65,4.79
280,Palmer,1,US,1582448172,85,42.16,-72.33,32.0,3.65
281,Tiarei,20,PF,1582448173,78,-17.53,-149.33,78.8,2.24
282,Mweka,98,CD,1582448173,74,-4.85,21.57,80.42,6.17
283,Bagua Grande,100,PE,1582448173,93,-5.76,-78.44,63.55,0.76
284,Razole,0,IN,1582448173,45,16.48,81.83,86.2,7.25
285,Bambous Virieux,75,MU,1582448173,70,-20.34,57.76,84.99,8.05
286,Vanimo,0,PG,1582448021,78,-2.67,141.3,83.46,17.81
287,Neuquen,0,AR,1582448174,68,-38.95,-68.06,64.4,2.24
288,Monroe,40,US,1582448174,54,43.15,-77.68,37.99,6.93
289,Mayumba,100,GA,1582448174,81,-3.43,10.66,83.77,9.13
290,Kitimat,90,CA,1582448174,80,54.05,-128.65,33.8,13.87
291,Ponta Delgada,40,PT,1582448174,82,37.73,-25.67,57.2,3.36
292,Richards Bay,100,ZA,1582448012,70,-28.78,32.04,75.94,36.19
293,Vyazemskiy,0,RU,1582448175,93,47.54,134.75,8.44,2.82
294,Husavik,29,IS,1582448175,67,66.04,-17.34,20.07,9.01
295,Chateauroux,90,FR,1582448175,87,46.82,1.7,48.2,21.92
296,Dingle,33,PH,1582448175,78,11.0,122.67,78.76,14.85
297,Antalaha,96,MG,1582448175,80,-14.9,50.28,81.9,13.82
298,Alyangula,100,AU,1582448176,74,-13.85,136.42,86.0,3.36
299,Sao Filipe,100,CV,1582448176,80,14.9,-24.5,68.47,17.36
300,Houma,1,US,1582448176,100,29.6,-90.72,48.99,3.36
301,Shasta Lake,75,US,1582448176,71,40.68,-122.37,48.2,1.97
302,Boende,26,CD,1582448176,45,-0.22,20.87,94.08,2.55
303,Paramirim,98,BR,1582448176,90,-13.44,-42.24,66.92,0.27
304,Atar,100,MR,1582448177,11,20.52,-13.05,83.73,7.38
305,San Fernando del Valle de Catamarca,7,AR,1582448177,80,-28.47,-65.79,44.22,1.77
306,Senica,75,SK,1582448177,71,48.68,17.37,53.01,11.41
307,Egvekinot,0,RU,1582448177,99,66.32,-179.17,-33.54,1.66
308,Zeya,100,RU,1582448177,96,53.75,127.27,6.84,3.51
309,San Quintin,0,MX,1582448178,79,30.48,-115.95,55.6,8.16
310,Anadyr,0,RU,1582448178,74,64.75,177.48,-22.0,2.24
311,Pangai,0,TO,1582448178,87,-19.8,-174.35,80.29,20.78
312,Vangaindrano,27,MG,1582448178,63,-23.35,47.6,85.87,6.8
313,Hit,0,IQ,1582448179,45,33.64,42.83,66.43,11.81
314,Harper,72,LR,1582448179,85,4.38,-7.72,83.37,2.64
315,Katete,100,UG,1582448179,73,-0.78,29.75,70.95,1.81
316,Handan,0,CN,1582448179,31,36.6,114.47,65.28,14.41
317,Onega,100,RU,1582448179,94,63.91,38.14,33.67,18.84
318,Narva-Joesuu,74,EE,1582448179,77,59.46,28.04,37.45,18.84
319,Hounde,16,BF,1582448180,12,11.5,-3.52,88.97,12.93
320,Clyde River,1,CA,1582448180,74,70.47,-68.59,-27.4,4.7
321,Quatre Cocos,75,MU,1582448180,70,-20.21,57.76,84.99,8.05
322,Bjornevatn,90,NO,1582448180,100,69.67,29.98,26.6,8.05
323,Bandarbeyla,71,SO,1582448180,72,9.49,50.81,78.21,16.62
324,Vila Franca do Campo,40,PT,1582448180,82,37.72,-25.43,57.2,3.36
325,Kumluca,37,TR,1582448181,73,36.37,30.29,50.45,10.76
326,Say,0,NE,1582448181,10,13.1,2.37,80.6,14.99
327,Kavos,20,GR,1582448181,43,38.83,22.83,50.0,8.05
328,Bartica,75,GY,1582448181,94,6.4,-58.62,75.2,2.24
329,Tuatapere,12,NZ,1582448182,86,-46.13,167.68,55.99,3.0
330,Kollam,20,IN,1582448010,55,8.88,76.6,89.6,6.93
331,Sao Felix do Xingu,82,BR,1582448182,98,-6.64,-51.99,70.88,1.39
332,San Bernardo,0,CL,1582448182,76,-33.6,-70.72,57.2,6.93
333,Rodrigues Alves,100,BR,1582448182,98,-7.74,-72.65,72.27,4.23
334,Yura,75,PE,1582448182,100,-16.25,-71.68,53.6,3.65
335,Guerrero Negro,100,MX,1582448183,77,27.98,-114.06,57.29,15.35
336,Pindwara,0,IN,1582448183,19,24.8,73.07,85.37,6.49
337,Rantepao,100,ID,1582448183,94,-2.97,119.9,74.97,1.39
338,Warrnambool,30,AU,1582448183,79,-38.38,142.48,66.99,11.83
339,Bonabeerie,20,CM,1582447898,89,4.08,9.68,84.2,3.36
340,Juneau,90,US,1582448184,80,58.3,-134.42,35.01,17.22
341,Bhuj,0,IN,1582448184,36,23.27,69.67,81.37,9.62
342,Stonewall,90,CA,1582448184,85,50.13,-97.33,26.01,10.29
343,Petropavl,75,KZ,1582448184,100,54.88,69.16,19.4,4.47
344,Nakhon Si Thammarat,40,TH,1582448184,62,8.43,99.97,89.6,11.41
345,Khani,90,GE,1582448185,87,41.96,42.96,48.2,3.36
346,Hofn,91,IS,1582448038,82,64.25,-15.21,33.66,8.5
347,Chui,0,UY,1582448185,91,-33.7,-53.46,57.22,3.13
348,Sao Joao da Barra,100,BR,1582448000,84,-21.64,-41.05,73.58,18.12
349,Rawson,0,AR,1582448179,47,-43.3,-65.1,68.68,16.53
350,Viedma,0,AR,1582448186,29,-40.81,-63.0,63.7,14.67
351,Xinzhi,0,CN,1582448186,42,36.5,111.7,51.71,6.93
352,Saint-Louis,100,SN,1582448186,30,16.33,-15.0,77.05,9.48
353,Kavaratti,89,IN,1582448186,71,10.57,72.64,82.69,4.99
354,Bang Saphan,75,TH,1582448187,70,11.21,99.51,86.0,10.29
355,Fairbanks,90,US,1582448187,77,64.84,-147.72,1.4,9.17
356,Bonavista,81,CA,1582448187,86,48.65,-53.11,27.0,11.01
357,Baykit,96,RU,1582447975,88,61.67,96.37,24.93,4.81
358,Comodoro Rivadavia,0,AR,1582448044,37,-45.87,-67.5,68.0,17.22
359,Saint Anthony,1,US,1582448188,100,45.02,-93.22,28.4,4.7
360,Nuevo Ideal,100,MX,1582448188,68,24.89,-105.07,52.12,4.03
361,Bedele,6,ET,1582448188,24,8.46,36.35,88.72,5.46
362,Mirabela,75,BR,1582448188,83,-16.26,-44.16,73.4,0.38
363,Kirakira,51,SB,1582448189,88,-10.45,161.92,78.82,7.49
364,Marystown,93,CA,1582448790,93,47.17,-55.15,30.6,19.1
365,Wagar,0,SD,1582448792,29,16.15,36.2,83.44,6.31
366,Coyhaique,50,CL,1582448793,66,-45.58,-72.07,55.4,6.93
367,Lata,0,PT,1582448794,100,40.16,-8.33,55.0,4.7
368,Weston,90,US,1582448602,68,26.1,-80.4,68.0,10.29
369,Puerto Cabezas,85,NI,1582448796,96,14.04,-83.39,70.77,5.64
370,Moree,75,AU,1582448798,88,-29.47,149.85,68.0,8.05
371,Ambulu,26,ID,1582448799,71,-8.35,113.61,84.29,7.74
372,Shubarkuduk,94,KZ,1582448800,92,49.14,56.49,24.93,12.44
373,Ballesteros,100,PH,1582448801,80,18.41,121.52,76.15,25.05
374,Luanda,75,AO,1582448760,88,-8.84,13.23,80.6,2.24
375,Norman Wells,90,CA,1582448763,84,65.28,-126.83,5.0,1.95
376,Panama,98,PA,1582448600,83,8.99,-79.52,78.01,3.36
377,Broken Hill,40,AU,1582448806,27,-31.95,141.43,87.8,16.11
378,Marovoay,40,MG,1582448807,74,-16.1,46.63,84.2,8.05
379,Nortelandia,100,BR,1582448808,99,-14.45,-56.8,66.81,1.41
380,Itoman,20,JP,1582448809,56,26.12,127.67,68.0,11.41
381,Lagoa,1,PT,1582448811,74,39.05,-27.98,58.42,6.53
382,Iqaluit,40,CA,1582448805,59,63.75,-68.51,-31.0,23.04
383,Erzin,75,TR,1582448813,100,36.96,36.2,55.4,2.24
384,Meadow Lake,75,US,1582448815,100,34.8,-106.54,46.0,5.82
385,Yeppoon,90,AU,1582448816,88,-23.13,150.73,77.0,8.05
386,Camacha,40,PT,1582448817,82,33.08,-16.33,62.6,20.8
387,Canakkale,40,TR,1582448818,65,40.08,26.83,46.4,12.75
388,Narrabri,75,AU,1582448819,68,-30.32,149.78,71.6,8.05
389,Griffith,1,US,1582448821,74,41.53,-87.42,36.0,10.29
390,Saldanha,0,ZA,1582448822,29,-33.01,17.94,78.8,13.87
391,Vao,41,NC,1582448823,74,-22.67,167.48,78.89,18.12
392,Ust'-Kulom,100,RU,1582448824,87,61.69,53.69,29.52,18.14
393,College,90,US,1582448791,77,64.86,-147.8,1.4,9.17
394,Raudeberg,100,NO,1582448826,64,61.99,5.14,39.2,12.75
395,Glomfjord,75,NO,1582448828,80,66.82,13.97,37.4,6.93
396,Korhogo,0,CI,1582448829,12,9.45,-5.63,86.02,5.08
397,Houston,90,US,1582448667,87,29.76,-95.36,57.99,3.36
398,Lokosovo,29,RU,1582448831,90,61.13,74.82,20.79,11.01
399,Ilulissat,9,GL,1582448832,45,69.22,-51.1,1.4,10.29
400,Mossamedes,20,AO,1582448765,78,-15.2,12.15,71.6,6.93
401,Acari,100,PE,1582448835,86,-15.43,-74.62,66.92,1.32
402,Havelock,1,US,1582448836,86,34.88,-76.9,30.99,2.28
403,Lukoyanov,100,RU,1582448837,94,55.03,44.48,30.27,19.51
404,Weatherford,75,US,1582448679,76,32.76,-97.8,52.0,8.05
405,Cabedelo,16,BR,1582448840,94,-6.98,-34.83,77.0,3.94
406,Tabou,72,CI,1582448841,85,4.42,-7.35,83.37,2.64
407,Selenginsk,40,RU,1582448842,58,52.01,106.86,24.8,11.18
408,Lodja,100,CD,1582448843,74,-3.48,23.43,81.41,3.02
409,Yumen,0,CN,1582448844,20,40.28,97.2,45.21,29.89
410,Ondjiva,40,AO,1582448846,69,-17.07,15.73,78.8,5.82
411,Tatishchevo,100,RU,1582448847,98,51.67,45.6,30.99,7.0
412,Clinton,1,US,1582448633,59,42.59,-82.92,35.6,5.82
413,Kruisfontein,61,ZA,1582448849,48,-34.0,24.73,67.06,8.3
414,Launceston,21,AU,1582448752,56,-41.45,147.17,69.8,13.87
415,Tyukhtet,96,RU,1582448852,91,56.54,89.3,25.25,0.43
416,Hue,20,VN,1582448853,61,16.47,107.6,80.6,10.29
417,Sarahan,20,IN,1582448854,46,31.52,77.8,32.77,3.33
418,Nioro,93,GM,1582448855,27,13.35,-15.75,78.04,3.44
419,Grindavik,75,IS,1582448856,86,63.84,-22.43,32.0,31.09
420,Guaruja,75,BR,1582448857,87,-23.99,-46.26,71.01,8.05
421,Vaitape,1,PF,1582448859,72,-16.52,-151.75,82.9,8.57
422,Hearst,100,CA,1582448860,97,49.68,-83.67,26.24,2.84
423,Hukuntsi,100,BW,1582448861,69,-24.0,21.75,74.01,13.35
424,Plettenberg Bay,8,ZA,1582448862,61,-34.05,23.37,65.32,10.8
425,Bandar-e Anzali,90,IR,1582448863,81,37.47,49.46,53.6,4.7
426,Menzel Salem,32,TN,1582448865,75,35.86,8.48,42.8,2.24
427,Vardo,100,NO,1582448758,80,70.37,31.11,30.76,10.47
428,Makaleng,75,BW,1582448867,100,-20.9,27.28,66.2,6.93
429,Preobrazheniye,0,RU,1582448868,73,42.9,133.91,21.47,5.66
430,Zheleznodorozhnyy,75,RU,1582448869,97,55.75,38.0,35.01,15.66
431,OEstersund,20,SE,1582448870,68,63.18,14.64,35.01,27.51
432,Huarmey,100,PE,1582448872,67,-10.07,-78.15,72.28,2.06
433,Fernandopolis,79,BR,1582448873,94,-20.28,-50.25,66.47,8.52
434,Bereda,90,ES,1582448874,100,43.27,-7.54,51.01,2.24
435,Myitkyina,74,MM,1582448875,22,25.38,97.4,89.37,3.49
436,Roald,75,NO,1582448877,69,62.58,6.13,37.4,13.87
437,North Myrtle Beach,40,US,1582448878,100,33.82,-78.68,32.0,2.93
438,San Ramon,1,US,1582448749,81,37.78,-121.98,52.0,27.51
439,Jalu,0,LY,1582448880,49,29.03,21.55,57.6,21.18
440,Isangel,42,VU,1582448881,79,-19.55,169.27,78.28,15.21
441,Shakiso,88,ET,1582448882,18,5.75,38.92,85.73,12.21
442,Mandalgovi,99,MN,1582448883,43,45.76,106.27,32.63,6.49
443,Macroom,75,IE,1582448885,81,51.9,-8.95,48.0,14.99
444,Zelenogorskiy,90,RU,1582448886,79,55.03,87.0,28.4,8.95
445,Bundaberg,75,AU,1582448887,100,-24.85,152.35,73.4,3.36
446,Sheltozero,100,RU,1582448889,78,61.37,35.37,35.42,24.56
447,Amambai,98,BR,1582448890,66,-23.1,-55.23,56.7,3.2
448,Tahoua,0,NE,1582448891,17,14.89,5.27,77.0,16.11
449,Antofagasta,90,CL,1582448892,82,-23.65,-70.4,66.2,2.24
450,Bauchi,2,NG,1582448893,13,10.5,10.0,81.45,10.11
451,Emirdag,94,TR,1582448895,89,39.02,31.15,31.39,6.15
452,Nago,20,JP,1582448896,56,26.59,127.98,68.0,11.41
453,Kyabram,91,AU,1582448897,36,-36.32,145.05,82.0,9.06
454,Ngunguru,0,NZ,1582448898,74,-35.62,174.5,61.0,5.01
455,Porto Seguro,20,BR,1582448699,83,-16.45,-39.06,78.8,3.36
456,Zhuhai,50,CN,1582448900,68,22.28,113.57,79.0,11.41
457,Sawakin,75,SD,1582448902,60,19.11,37.33,75.2,9.17
458,Kirkwall,40,GB,1582448903,86,58.98,-2.96,39.2,25.28
459,Opuwo,84,NA,1582448904,19,-18.06,13.84,81.19,8.63
460,Champasak,0,LA,1582448905,27,14.75,106.0,91.4,2.24
461,Atasu,25,KZ,1582448907,89,48.68,71.64,19.92,5.97
462,Seoul,1,KR,1582448908,30,37.57,126.98,46.4,4.7
463,Ibresi,100,RU,1582448909,89,55.3,47.04,28.36,18.28
464,Borba,100,BR,1582448910,96,-4.39,-59.59,74.35,1.5
465,Manaure,97,CO,1582448911,88,11.78,-72.44,76.12,8.12
466,Hamilton,1,US,1582448913,73,39.18,-84.53,34.0,4.72
467,Arras,90,FR,1582448726,93,50.29,2.78,55.99,26.4
468,Puerto Escondido,0,MX,1582448915,57,15.85,-97.07,69.62,4.88
469,Iranshahr,20,IR,1582448825,41,27.2,60.68,77.0,4.7
470,Acajutla,0,SV,1582448917,64,13.59,-89.83,81.48,11.39
471,Amapa,100,BR,1582448919,99,1.0,-52.0,71.89,1.1
472,Leshukonskoye,100,RU,1582448920,89,64.9,45.76,31.75,20.78
473,Punta Alta,0,AR,1582448921,42,-38.88,-62.07,64.67,14.47
474,Arazede,0,PT,1582448922,100,40.29,-8.65,55.0,4.7
475,Toamasina,40,MG,1582448923,58,-18.17,49.38,87.8,6.93
476,Intibuca,90,HN,1582448636,100,14.32,-88.17,66.2,16.11
477,Ous,8,RU,1582448926,84,60.91,61.52,33.44,12.71
478,Aksu,49,CN,1582448927,27,41.12,80.26,49.12,6.33
479,Kununurra,63,AU,1582448841,24,-15.77,128.73,100.4,6.93
480,Baharly,0,TM,1582448929,48,38.44,57.43,60.35,6.29
481,Makakilo City,20,US,1582448930,93,21.35,-158.09,73.0,4.7
482,Baft,0,IR,1582448932,18,29.23,56.61,57.69,13.8
483,Muli,64,MV,1582448933,80,2.92,73.57,82.81,16.91
484,Van,75,TR,1582448934,74,38.49,43.38,35.6,4.7
485,Kiryat Gat,75,IL,1582448935,63,31.61,34.76,62.6,3.36
486,Kupang,75,ID,1582448936,74,-10.17,123.58,86.0,10.29
487,Uryupinsk,100,RU,1582448841,90,50.8,42.01,33.01,5.01
488,Nouadhibou,75,MR,1582448939,82,20.93,-17.03,62.6,8.05
489,Shalakusha,100,RU,1582448940,92,62.22,40.25,34.45,18.75
490,Chumikan,69,RU,1582448866,92,54.72,135.31,4.28,1.95
491,Constitucion,0,CL,1582448767,89,-35.33,-72.42,50.79,1.86
492,Bainbridge Island,90,US,1582448943,100,47.63,-122.52,43.0,6.93
493,Quattro Castella,100,IT,1582448945,81,44.63,10.47,53.01,2.24
494,Bilma,29,NE,1582448879,19,18.69,12.92,72.07,19.39
495,Teknaf,0,BD,1582448947,15,20.86,92.31,91.9,7.29
496,Worthing,75,GB,1582448948,100,50.81,-0.37,55.0,18.34
497,Bowen,90,AU,1582448949,94,-20.02,148.23,77.0,4.7
498,Napanee,5,CA,1582448951,86,44.25,-76.95,35.01,5.82
499,Abalak,100,RU,1582448952,89,58.13,68.59,29.93,7.67
500,Kuching,40,MY,1582448953,88,1.55,110.33,80.6,8.05
501,Karratha,0,AU,1582448954,76,-20.74,116.85,81.99,16.89
502,Rio Gallegos,1,AR,1582448751,53,-51.62,-69.22,51.8,18.34
503,Qui Nhon,0,VN,1582448956,63,13.77,109.23,75.63,14.25
504,Margate,75,GB,1582448958,87,51.38,1.39,55.99,27.51
505,Fengcheng,4,CN,1582448959,68,40.45,124.07,33.31,7.9
506,Kamenka,88,RU,1582448896,96,51.32,42.77,32.0,5.99
507,Ulu-Telyak,89,RU,1582448961,99,54.91,56.97,30.33,5.88
508,Yuli,14,NG,1582448962,12,9.7,10.27,86.86,10.94
509,Marsaxlokk,2,MT,1582448964,54,35.84,14.54,59.0,9.17
510,Ust'-Omchug,95,RU,1582448965,99,61.15,149.63,-12.98,3.36
511,Urucui,100,BR,1582448966,96,-7.23,-44.56,70.75,7.47
512,Manjacaze,61,MZ,1582448967,77,-24.71,33.88,81.19,14.41
513,Jiwani,0,PK,1582448968,63,25.05,61.74,72.66,5.3
514,Kieta,100,PG,1582448847,72,-6.22,155.63,84.42,0.92
515,Sola,0,VU,1582448971,77,-13.88,167.55,83.23,17.05
516,Santa Cruz de la Sierra,75,BO,1582448813,77,-17.8,-63.17,69.8,10.29
517,Port Blair,100,IN,1582448936,74,11.67,92.75,81.9,13.31
518,Matay,3,EG,1582448974,34,28.42,30.78,63.46,4.79
519,Ilhabela,100,BR,1582448961,60,-23.78,-45.36,75.09,7.65
520,Nadapuram,20,IN,1582448977,37,11.7,75.67,96.8,6.93
521,Valparaiso,90,CL,1582448682,93,-33.04,-71.63,53.6,2.24
522,Turaif,0,SA,1582448979,58,31.67,38.66,57.2,13.87
523,Mahon,0,ES,1582448980,93,39.89,4.27,53.6,4.7
524,Mackenzie,1,CA,1582448982,92,55.3,-123.17,14.0,2.24
525,Mont-Dore,20,NC,1582448983,65,-22.28,166.58,84.0,16.11
526,Nouakchott,100,MR,1582448984,77,18.09,-15.98,64.4,10.29
527,Nalut,0,LY,1582448985,53,30.33,10.85,53.19,12.62
528,Keti Bandar,0,PK,1582448987,29,24.14,67.45,85.48,4.18
529,Pershotravneve,100,UA,1582448988,86,51.39,28.87,39.81,15.12
530,Parintins,100,BR,1582448989,89,-2.63,-56.74,74.37,2.93
531,Hun,0,LY,1582448990,41,29.13,15.95,56.16,16.4
532,'Ewa Beach,20,US,1582448991,73,21.32,-158.01,73.0,3.36
533,Kuusamo,90,FI,1582448993,99,65.97,29.18,32.0,4.7
534,Pastavy,100,BY,1582448994,79,55.12,26.83,37.99,20.15
